{
  "defaultModuleId": "traffic-northbound",
  "modules": [
    {
      "id": "traffic-northbound",
      "mode": "traffic",
      "name": "下班路況",
      "schedule": "dark",
      "origin": "新北市民權路130巷",
      "destination": "新北市鶯歌區國光街92號",
      "viewGroups": [
        {
          "name": "樹林交流道",
          "zoom": 15,
          "views": [
            {
              "name": "樹林交流道",
              "center": {
                "lat": 24.9518052,
                "lng": 121.3944133
              },
              "isWaypoint": true
            },
            {
              "name": "學府路",
              "center": {
                "lat": 24.9508918,
                "lng": 121.383177
              },
              "isWaypoint": true
            }
          ]
        },
        {
          "name": "三鶯交流道",
          "zoom": 16,
          "views": [
            {
              "name": "三鶯交流道",
              "center": {
                "lat": 24.943397,
                "lng": 121.354527
              },
              "isWaypoint": true
            },
            {
              "name": "文化路",
              "center": {
                "lat": 24.949605,
                "lng": 121.352785
              },
              "isWaypoint": true
            },
            {
              "name": "國慶街",
              "center": {
                "lat": 24.952312,
                "lng": 121.351581
              },
              "isWaypoint": true
            }
          ]
        }
      ]
    },
    {
      "id": "traffic-southbound",
      "mode": "traffic",
      "name": "上班路況",
      "schedule": "light",
      "origin": "",
      "destination": "",
      "viewGroups": [
        {
          "name": "三鶯交流道",
          "zoom": 16,
          "views": [
            {
              "name": "國慶街",
              "center": {
                "lat": 24.954411,
                "lng": 121.350232
              },
              "isWaypoint": false
            },
            {
              "name": "陶博館",
              "center": {
                "lat": 24.949705,
                "lng": 121.3525566
              },
              "isWaypoint": false
            },
            {
              "name": "三鶯交流道",
              "center": {
                "lat": 24.940134,
                "lng": 121.361936
              },
              "isWaypoint": false
            }
          ]
        },
        {
          "name": "樹林交流道",
          "zoom": 15,
          "views": [
            {
              "name": "中山路",
              "center": {
                "lat": 24.9569995,
                "lng": 121.3527753
              },
              "isWaypoint": false
            },
            {
              "name": "學府路",
              "center": {
                "lat": 24.9508918,
                "lng": 121.383177
              },
              "isWaypoint": false
            },
            {
              "name": "樹林交流道",
              "center": {
                "lat": 24.950953,
                "lng": 121.395931
              },
              "isWaypoint": false
            }
          ]
        }
      ]
    }
  ]
}